[
  {
    "name": "생존수영",
    "lat": 37.102881,
    "lon": 129.042439
  },
  {
    "name": "주수체험",
    "lat": 37.104207,
    "lon": 129.03998
  },
  {
    "name": "심폐소생술 · 외상처치",
    "lat": 37.103945635031195,
    "lon": 129.04065678838597
  },
  {
    "name": "소화기체험",
    "lat": 37.102700,
    "lon": 129.040128
  },
  {
    "name": "테스트",
    "lat": 37.100263887244125,
    "lon": 129.02195210047313
  }
]
