[
  {
    "name": "생존수영",
    "lat": 37.1028735053073,
    "lon": 129.04242483596474
  },
  {
    "name": "주수체험",
    "lat": 37.104298260520885,
    "lon": 129.0399941892712
  },
  {
    "name": "심폐소생술 · 외상처치",
    "lat": 37.103922335806324,
    "lon": 129.04063647937465
  },
  {
    "name": "소화기체험",
    "lat": 37.102679842056396,
    "lon": 129.04006887222562
  },
  {
    "name": "테스트",
    "lat": 37.100263887244125,
    "lon": 129.02195210047313
  }
]
