[
  {
    "name": "☕ 생존수영 체험장",
    "lat": 37.10289738539689,
    "lon": 129.04241141773647,
    "desc": "생존수영 체험장"
  },
  {
    "name": "🏛 소화기체험장",
    "lat": 37.10266859885278,
    "lon": 129.0401332446797,
    "desc": "소화기체험장"
  },
  {
    "name": "🌳 심폐소생술, 외상처치
    "lat": 37.10396589613642,
    "lon": 129.0406573321256,
    "desc": "심폐소생술, 외상처치"
  },
  {
    "name": "🍜 주수체험장",
    "lat": 37.10420626312972,
    "lon": 129.04003952470083,
    "desc": "강남역 근처"
  },
  {
    "name": "🏥 연습용",
    "lat": 37.100491001509624,
    "lon": 129.02461251953432,
    "desc": "세이프타운"
  }
]
